{
  "detachments": [
    {
      "id": 0,
      "name": "CFRG test 1",
      "city": "city 1",
      "province": "province1",
      "address": "address1",
      "postal_code": "a1b3c4",
      "phone": "905-123-4567",
      "fax": "905-234-5678",
      "email": "email1@hotmail.com",
      "unit_webpage": "detachment1.com",
      "unit_socialmedia": "null",
      "operation": "Monday to Friday 9:00 am to 4:00 pm<br>Thursday evenings 9:00 am to 8:00 pm",
      "latitude": "44.645972",
      "longitude": "-63.620024",
      "is_cfrc": "1",
      "is_hq": "0",
      "what_we_do_en": "null",
      "prefixCode": "HAL",
      "has_advisory": "0",
      "advisory": "null"
    },
    {
      "id": 1,
      "name": "CFRG test 2",
      "city": "city 2",
      "province": "province2",
      "address": "address2",
      "postal_code": "a1b3c4",
      "phone": "905-123-4567",
      "fax": "905-234-5678",
      "email": "email2@hotmail.com",
      "unit_webpage": "detachment2.com",
      "unit_socialmedia": "null",
      "operation": "Monday to Friday 9:00 am to 4:00 pm<br>Thursday evenings 9:00 am to 8:00 pm",
      "latitude": "44.003240",
      "longitude": "-79.395760",
      "is_cfrc": "1",
      "is_hq": "0",
      "what_we_do_en": "null",
      "prefixCode": "QUE",
      "has_advisory": "0",
      "advisory": "null"
    },
    {
      "id": 2,
      "name": "CFRG test 3",
      "city": "city 3",
      "province": "province3",
      "address": "address3",
      "postal_code": "a1b3c4",
      "phone": "905-123-4567",
      "fax": "905-234-5678",
      "email": "email3@hotmail.com",
      "unit_webpage": "detachment3.com",
      "unit_socialmedia": "null",
      "operation": "Monday to Friday 9:00 am to 4:00 pm<br>Thursday evenings 9:00 am to 8:00 pm",
      "latitude": "45.421759",
      "longitude": "-75.694752",
      "is_cfrc": "1",
      "is_hq": "0",
      "what_we_do_en": "null",
      "prefixCode": "OTT",
      "has_advisory": "0",
      "advisory": "null"
    }
  ],
  "units": [
    {
      "id": 0,
      "environment": "Army",
      "name": "UNIT test 1",
      "city": "city 1",
      "province": "province1",
      "address": "address1",
      "postal_code": "a1b3c4",
      "phone": "905-123-4567",
      "fax": "905-234-5678",
      "email": "email1@hotmail.com",
      "unit_webpage": "unit1.com",
      "unit_socialmedia": "null",
      "operation": "Monday to Friday 9:00 am to 4:00 pm<br>Thursday evenings 9:00 am to 8:00 pm",
      "latitude": "44.645972",
      "longitude": "-63.620024",
      "what_we_do_en": "null",
      "prefixCode": "HAL",
      "has_advisory": "0",
      "advisory": "null"
    },
    {
      "id": 1,
      "environment": "Air Force",
      "name": "UNIT test 2",
      "city": "city 2",
      "province": "province2",
      "address": "address2",
      "postal_code": "a1b3c4",
      "phone": "905-123-4567",
      "fax": "905-234-5678",
      "email": "email2@hotmail.com",
      "unit_webpage": "unit2.com",
      "unit_socialmedia": "null",
      "operation": "Monday to Friday 9:00 am to 4:00 pm<br>Thursday evenings 9:00 am to 8:00 pm",
      "latitude": "46.845288",
      "longitude": "-71.213691",
      "what_we_do_en": "null",
      "prefixCode": "QUE",
      "has_advisory": "0",
      "advisory": "null"
    },
    {
      "id": 2,
      "environment": "Navy",
      "name": "UNIT test 3",
      "city": "city 3",
      "province": "province3",
      "address": "address3",
      "postal_code": "a1b3c4",
      "phone": "905-123-4567",
      "fax": "905-234-5678",
      "email": "email3@hotmail.com",
      "unit_webpage": "unit.com",
      "unit_socialmedia": "null",
      "operation": "Monday to Friday 9:00 am to 4:00 pm<br>Thursday evenings 9:00 am to 8:00 pm",
      "latitude": "45.421759",
      "longitude": "-75.694752",
      "what_we_do_en": "null",
      "prefixCode": "OTT",
      "has_advisory": "0",
      "advisory": "null"
    }
  ]
}